[
    {
      "name": "SMAT Pelita Nusantara",
      "address": "Jalan Paledang No.297a, Campaka",
      "lat": -6.9016287,
      "lng": 107.5691457
    },
    {
      "name": "SMAN 13 Bandung",
      "address": "Jalan Raya Cibeureum No.52, Campaka",
      "lat": -6.903441099999999,
      "lng": 107.5650556
    },
    {
      "name": "Sekolah Menengah Atas Kristen 3 BPK Penabur Bandung",
      "address": "Jalan Raya Cibeureum No.92, Campaka",
      "lat": -6.898798900000001,
      "lng": 107.5634918
    },
    {
      "name": "Smp Negeri 67",
      "address": "Jalan Asrama Kipal No.55, Campaka",
      "lat": -6.900775599999999,
      "lng": 107.565706
    },
    {
      "name": "Cahaya Al - Amin",
      "address": "Jalan Bojong Koneng No.4, Campaka",
      "lat": -6.8995783,
      "lng": 107.5668364
    },
    {
      "name": "Kompleks SDN Cibeureum 091",
      "address": "Jalan Asrama Kipal No.55, Campaka",
      "lat": -6.900705099999999,
      "lng": 107.5655579
    },
    {
      "name": "TK. Tawekal",
      "address": "3HX7+8X8, Jalan Sapta Marga, Campaka",
      "lat": -6.901723,
      "lng": 107.5649552
    },
    {
      "name": "Smak Bpk Penabur 3",
      "address": "3HX8+62P, Jalan Asrama Kipal, Campaka",
      "lat": -6.9019162,
      "lng": 107.5650814
    },
    {
      "name": "Smp Mutiara 4",
      "address": "Jalan Raya Cimindi No.74, Campaka",
      "lat": -6.9013073,
      "lng": 107.5639392
    },
    {
      "name": "SD Advent Cimindi",
      "address": "Jalan Raya Cimindi No.74, Campaka",
      "lat": -6.9013472,
      "lng": 107.5639137
    },
    {
      "name": "Sekolah Menengah Atas Advent Cimindi",
      "address": "Jalan Raya Cimindi No.74 02, Campaka",
      "lat": -6.901355499999999,
      "lng": 107.5638996
    },
    {
      "name": "SMK Muslimin 1 Bandung",
      "address": "3HX9+9PF, Jalan Paledang No.297, Campaka",
      "lat": -6.901548499999999,
      "lng": 107.5692883
    },
    {
      "name": "XI-7",
      "address": "Jalan Jendral Haji Amir Machmud No.52, Campaka",
      "lat": -6.903179199999999,
      "lng": 107.5652578
    },
    {
      "name": "basenam",
      "address": "Jalan Jendral Haji Amir Machmud No.52, Campaka",
      "lat": -6.903269400000001,
      "lng": 107.5652759
    },
    {
      "name": "Sekolah Dasar Negeri Cibeureum 1",
      "address": "Jalan Asrama Kipal No.56, Campaka",
      "lat": -6.903731299999999,
      "lng": 107.5678109
    },
    {
      "name": "TAAM Happy Kids",
      "address": "3HWC+W2V, Jalan Paledang, Campaka",
      "lat": -6.902631999999999,
      "lng": 107.5700584
    }
  ]