[
    {
      "name": "Batagor Bloder, Asrama Kipal",
      "address": "Jalan Raya Cibeureum No.70, Campaka",
      "lat": -6.9022031,
      "lng": 107.564278
    },
    {
      "name": "Dapur alya",
      "address": "Jalan bukit barisan perum cendana tahap 3 blok e no 2",
      "lat": -6.900629599999999,
      "lng": 107.5665802
    },
    {
      "name": "Batagor Mang Andi",
      "address": "Gang Babakan Hegar No.41, Campaka",
      "lat": -6.900030500000001,
      "lng": 107.5668857
    },
    {
      "name": "Warung goceng",
      "address": "Gang Babakan Hegar No.35, Campaka",
      "lat": -6.9002304,
      "lng": 107.567023
    },
    {
      "name": "Warung Ceu Omah",
      "address": "4H28+3HQ, Jalan Sapta Marga, Campaka",
      "lat": -6.8997769,
      "lng": 107.5664796
    },
    {
      "name": "Ikan bakar nila cobek",
      "address": "4H28+4GF, Campaka",
      "lat": -6.899687200000001,
      "lng": 107.5662936
    },
    {
      "name": "Batagor Andi",
      "address": "Jalan Sapta Marga No.45, Campaka",
      "lat": -6.8995105,
      "lng": 107.5667487
    },
    {
      "name": "Pisang keju nacka",
      "address": "Jalan Asrama Kipal",
      "lat": -6.9010206,
      "lng": 107.5654345
    },
    {
      "name": "Kedai Hafinan",
      "address": "Gang Babakan Hegar No.23, RT.03/RW.03, Campaka",
      "lat": -6.900655,
      "lng": 107.5677506
    },
    {
      "name": "Basreng Kriuk Alan",
      "address": "Jalan Asrama Kipal No.B-14, RT.005/RW.004, Campaka",
      "lat": -6.9015413,
      "lng": 107.5658087
    },
    {
      "name": "Nasi uduk ema eti",
      "address": "Jalan Asrama Kipal No.b14, Campaka",
      "lat": -6.901540400000001,
      "lng": 107.565807
    },
    {
      "name": "CAKUE MINI ALAN",
      "address": "Jalan Asrama Kipal Gang Kipal II No.B-14, Campaka",
      "lat": -6.901547799999999,
      "lng": 107.5658049
    },
    {
      "name": "Ayam Goreng UT",
      "address": "Jalan Sapta Marga Jalan Bojong Koneng No.21, Campaka",
      "lat": -6.8991282,
      "lng": 107.5660965
    },
    {
      "name": "Seblak Poras",
      "address": "4H28+55X, Jalan Sapta Marga, Campaka",
      "lat": -6.899505099999999,
      "lng": 107.5654747
    },
    {
      "name": "Ayam seuhah R.S.A cibereum",
      "address": "3HX8+979, Campaka",
      "lat": -6.901585499999999,
      "lng": 107.5657456
    },
    {
      "name": "Warung Uwo ( Makanan Khas Palembang)",
      "address": "Jalan Asrama Kipal Gang Kipal II No.b23, RT.05/RW.04",
      "lat": -6.9017471,
      "lng": 107.5654853
    },
    {
      "name": "Ayam Tulang Lunak Rawit Tujuh",
      "address": "Jalan Sapta Marga No.74 blok C, Campaka",
      "lat": -6.899970199999999,
      "lng": 107.5647918
    }
  ]