name,address,lat,lng,types,business_status,rating,user_ratings_total
Rumah Sakit Umum Bungsu,"Jalan Veteran No.6, Kebon Pisang",-6.9185474,107.6133476,"hospital, health, point_of_interest, establishment",OPERATIONAL,4.2,421
Rumah Sakit Veteran,"Jalan Veteran No. 6, Kebon Pisang, Sumur Bandung, Kebon Pisang",-6.919426400000001,107.6156944,"hospital, health, point_of_interest, establishment",OPERATIONAL,5,1
RS MURNI TEGUH NARIPAN BANDUNG,Jalan Naripan No.89,-6.9208083,107.6163019,"hospital, health, point_of_interest, establishment",OPERATIONAL,5,70
Pasir Kaliki,"3JM9+2M3, Kebon Pisang",-6.917476499999999,107.6191593,"hospital, health, point_of_interest, establishment",OPERATIONAL,Unknown,Unknown
klinikk Anggrek RSHS Bandung,"3JM9+2M3, Kebon Pisang",-6.917476499999999,107.6191593,"hospital, health, point_of_interest, establishment",OPERATIONAL,Unknown,Unknown
Klinik istamedika,"3JM9+2M3, Kebon Pisang",-6.917476499999999,107.6191593,"hospital, health, point_of_interest, establishment",OPERATIONAL,Unknown,Unknown
kordinat satu,"Jalan Natuna No.4, Kebon Pisang",-6.9165767,107.6143143,"hospital, health, point_of_interest, establishment",OPERATIONAL,Unknown,Unknown
