name,address,lat,lng,business_status,rating,user_ratings_total,types,price_level
Little Smart - Antapani ( Day Care - Pre School/Playgroup - Kindergarten ),"V No.11 & 34, Jalan Atlas Raya, Babakan Surabaya",-6.915858600000001,107.6474564,OPERATIONAL,5,2,"school, point_of_interest, establishment",
LPTT Bandung,"Jalan Atlas V No.8, RW.07, Babakan Surabaya",-6.916073,107.6467888,OPERATIONAL,5,3,"school, point_of_interest, establishment",
ASTREA BANDUNG KOTA,"Jalan Hantap Raya No.27, RT.06/RW.14, Babakan Surabaya",-6.9149201,107.6478928,OPERATIONAL,4.7,18,"cafe, school, store, food, point_of_interest, establishment",
SLB B Karya Bhakti,"3JPX+2F2, Gang Dadap, Babakan Surabaya",-6.914991400000001,107.6486515,OPERATIONAL,5,3,"school, point_of_interest, establishment",
Raudhatul Athfal RA / TK Assajidin,"3JMX+P98, Babakan Surabaya",-6.9157243,107.6484468,OPERATIONAL,4.9,7,"school, point_of_interest, establishment",
workshop sablon doni,Babakan Surabaya,-6.915443299999999,107.6497603,OPERATIONAL,4.9,9,"clothing_store, school, store, health, point_of_interest, establishment",
Rumah kompos,"3JQW+5HP, Jalan Babakan Hantap, Babakan Surabaya",-6.9120442,107.6464676,OPERATIONAL,Unknown,Unknown,"school, point_of_interest, establishment",
YP Vocational High School. 17 Bandung,"3JMW+9H8, Jalan Babakan Surabaya, Babakan Surabaya",-6.916588699999999,107.6464538,OPERATIONAL,4.4,16,"secondary_school, school, point_of_interest, establishment",
PAUD Atlas Flamboyan,"3JJX+RJG, Babakan Surabaya",-6.917928000000001,107.6490694,OPERATIONAL,5,1,"school, point_of_interest, establishment",
