name,address,lat,lng,business_status,rating,user_ratings_total,types,price_level
Bandung,"3J25+M26, Karasak",-6.9483298,107.6075045,OPERATIONAL,Unknown,Unknown,"secondary_school, school, point_of_interest, establishment",
Enspire School of Digital Art Bandung Selatan,"Jl. Soekarno Hatta No.410 C-D, Karasak",-6.9483732,107.6072956,OPERATIONAL,5,24,"school, point_of_interest, establishment",
Pusat Kegiatan Belajar Masyarakat (PKBM) Jatiwaringin,"Jalan Soekarno Hatta No. 27/201 B RT 002/002, Karasak",-6.9484327,107.6087982,OPERATIONAL,5,5,"school, point_of_interest, establishment",
G,"elang 2, Gang Karasak",-6.948452699999999,107.6088559,OPERATIONAL,Unknown,Unknown,"primary_school, school, point_of_interest, establishment",
KB AMALIA,"Jalan Soekarno-Hatta No. 27/201 B RT 002/002, Karasak",-6.9484272,107.6088587,OPERATIONAL,5,2,"school, point_of_interest, establishment",
SMP YAMI,"Jalan Karasak Baru No.16, Karasak",-6.9502335,107.6098785,OPERATIONAL,4,10,"school, point_of_interest, establishment",
Pos paud Dahlia,"3J35+F9X, Jalan Mochammad Toha, Karasak",-6.946265899999999,107.6084761,OPERATIONAL,5,1,"school, point_of_interest, establishment",
Omega study guidance,"Jalan Karasak Utara I Jalan Karasak Utara II Gang III No.29, Karasak",-6.9466729,107.6061958,OPERATIONAL,Unknown,Unknown,"school, point_of_interest, establishment",
Jl tanah mera,"2JX6+H3Q, Jalan Mochammad Toha, Karasak",-6.9510406,107.6102455,OPERATIONAL,Unknown,Unknown,"school, point_of_interest, establishment",
